[
  {"id":"st-cdmx","name":"Ciudad de México","slug":"ciudad-de-mexico","type":"state","state":"Ciudad de México","city":"","city_slug":"","parent_slug":"","lat":19.4326,"lng":-99.1332,"search_keywords":"CDMX, DF, Ciudad de Mexico","popularity":95,"postal_codes":["06000","06700","11000"]},
  {"id":"st-jal","name":"Jalisco","slug":"jalisco","type":"state","state":"Jalisco","city":"","city_slug":"","parent_slug":"","lat":20.6597,"lng":-103.3496,"search_keywords":"","popularity":92,"postal_codes":[]},
  {"id":"st-nl","name":"Nuevo León","slug":"nuevo-leon","type":"state","state":"Nuevo León","city":"","city_slug":"","parent_slug":"","lat":25.6866,"lng":-100.3161,"search_keywords":"Nuevo Leon","popularity":88,"postal_codes":[]},

  {"id":"cdmx","name":"Ciudad de México","slug":"ciudad-de-mexico","type":"city","state":"Ciudad de México","city":"Ciudad de México","city_slug":"ciudad-de-mexico","parent_slug":"ciudad-de-mexico","lat":19.4326,"lng":-99.1332,"search_keywords":"CDMX, DF, Ciudad de Mexico","popularity":100,"postal_codes":["06000","06700","11000"]},
  {"id":"gdl","name":"Guadalajara","slug":"guadalajara","type":"city","state":"Jalisco","city":"Guadalajara","city_slug":"guadalajara","parent_slug":"jalisco","lat":20.6597,"lng":-103.3496,"search_keywords":"GDL, Guadalajara Jalisco","popularity":90,"postal_codes":["44100","44110"]},
  {"id":"mty","name":"Monterrey","slug":"monterrey","type":"city","state":"Nuevo León","city":"Monterrey","city_slug":"monterrey","parent_slug":"nuevo-leon","lat":25.6866,"lng":-100.3161,"search_keywords":"MTY, Monterrey Nuevo Leon","popularity":85,"postal_codes":["64000","64700"]},
  {"id":"pue","name":"Puebla","slug":"puebla","type":"city","state":"Puebla","city":"Puebla","city_slug":"puebla","parent_slug":"puebla","lat":19.0433,"lng":-98.2019,"search_keywords":"Puebla de Zaragoza","popularity":70,"postal_codes":[]},
  {"id":"qro","name":"Querétaro","slug":"queretaro","type":"city","state":"Querétaro","city":"Querétaro","city_slug":"queretaro","parent_slug":"queretaro","lat":20.5888,"lng":-100.3899,"search_keywords":"Queretaro","popularity":68,"postal_codes":[]},
  {"id":"mid","name":"Mérida","slug":"merida","type":"city","state":"Yucatán","city":"Mérida","city_slug":"merida","parent_slug":"yucatan","lat":20.9674,"lng":-89.5926,"search_keywords":"Merida Yucatan","popularity":66,"postal_codes":[]},
  {"id":"len","name":"León","slug":"leon","type":"city","state":"Guanajuato","city":"León","city_slug":"leon","parent_slug":"guanajuato","lat":21.1221,"lng":-101.68,"search_keywords":"Leon Gto","popularity":60,"postal_codes":[]},
  {"id":"tol","name":"Toluca","slug":"toluca","type":"city","state":"Estado de México","city":"Toluca","city_slug":"toluca","parent_slug":"estado-de-mexico","lat":19.2826,"lng":-99.6557,"search_keywords":"Toluca de Lerdo","popularity":58,"postal_codes":[]},
  {"id":"tij","name":"Tijuana","slug":"tijuana","type":"city","state":"Baja California","city":"Tijuana","city_slug":"tijuana","parent_slug":"baja-california","lat":32.5149,"lng":-117.0382,"search_keywords":"TJ","popularity":62,"postal_codes":[]},
  {"id":"cun","name":"Cancún","slug":"cancun","type":"city","state":"Quintana Roo","city":"Cancún","city_slug":"cancun","parent_slug":"quintana-roo","lat":21.1619,"lng":-86.8515,"search_keywords":"Cancun","popularity":75,"postal_codes":[]},
  {"id":"pdc","name":"Playa del Carmen","slug":"playa-del-carmen","type":"city","state":"Quintana Roo","city":"Playa del Carmen","city_slug":"playa-del-carmen","parent_slug":"quintana-roo","lat":20.6296,"lng":-87.0739,"search_keywords":"Playa, PDC","popularity":72,"postal_codes":[]},

  {"id":"col-roma-nte","name":"Roma Norte","slug":"roma-norte","type":"neighborhood","state":"Ciudad de México","city":"Ciudad de México","city_slug":"ciudad-de-mexico","parent_slug":"ciudad-de-mexico","lat":19.4189,"lng":-99.1677,"search_keywords":"Roma Nte, Col Roma Norte","popularity":80,"postal_codes":["06700","06760"]},
  {"id":"col-polanco","name":"Polanco","slug":"polanco","type":"neighborhood","state":"Ciudad de México","city":"Ciudad de México","city_slug":"ciudad-de-mexico","parent_slug":"ciudad-de-mexico","lat":19.4333,"lng":-99.2000,"search_keywords":"","popularity":78,"postal_codes":["11510","11550"]},
  {"id":"col-gdl-centro","name":"Guadalajara Centro","slug":"guadalajara-centro","type":"neighborhood","state":"Jalisco","city":"Guadalajara","city_slug":"guadalajara","parent_slug":"guadalajara","lat":20.6736,"lng":-103.344,"search_keywords":"Centro","popularity":65,"postal_codes":[]},
  {"id":"col-providencia","name":"Providencia","slug":"providencia","type":"neighborhood","state":"Jalisco","city":"Guadalajara","city_slug":"guadalajara","parent_slug":"guadalajara","lat":20.7022,"lng":-103.376,"search_keywords":"","popularity":60,"postal_codes":[]},
  {"id":"col-valle-oriente","name":"Valle Oriente","slug":"valle-oriente","type":"neighborhood","state":"Nuevo León","city":"Monterrey","city_slug":"monterrey","parent_slug":"monterrey","lat":25.647,"lng":-100.300,"search_keywords":"","popularity":58,"postal_codes":[]},
  {"id":"col-zona-hotelera","name":"Zona Hotelera","slug":"zona-hotelera","type":"neighborhood","state":"Quintana Roo","city":"Cancún","city_slug":"cancun","parent_slug":"cancun","lat":21.135,"lng":-86.745,"search_keywords":"","popularity":55,"postal_codes":[]},
  {"id":"col-centro-pdc","name":"Centro","slug":"centro","type":"neighborhood","state":"Quintana Roo","city":"Playa del Carmen","city_slug":"playa-del-carmen","parent_slug":"playa-del-carmen","lat":20.627,"lng":-87.073,"search_keywords":"","popularity":54,"postal_codes":[]}
]
